header:
  stamp:
    sec: 1754038647
    nanosec: 435364549
  frame_id: imu_link
magnetic_field:
  x: -32.438
  y: 14.56
  z: -70.29400000000001
magnetic_field_covariance:
- 0.0
- 0.0
- 0.0
- 0.0
- 0.0
- 0.0
- 0.0
- 0.0
- 0.0
---
header:
  stamp:
    sec: 1754038647
    nanosec: 455066113
  frame_id: imu_link
magnetic_field:
  x: -32.256
  y: 14.63
  z: -70.854
magnetic_field_covariance:
- 0.0
- 0.0
- 0.0
- 0.0
- 0.0
- 0.0
- 0.0
- 0.0
- 0.0
---
header:
  stamp:
    sec: 1754038647
    nanosec: 475400395
  frame_id: imu_link
magnetic_field:
  x: -32.760000000000005
  y: 14.392000000000001
  z: -70.854
magnetic_field_covariance:
- 0.0
- 0.0
- 0.0
- 0.0
- 0.0
- 0.0
- 0.0
- 0.0
- 0.0
---
header:
  stamp:
    sec: 1754038647
    nanosec: 495383885
  frame_id: imu_link
magnetic_field:
  x: -32.620000000000005
  y: 15.162
  z: -70.224
magnetic_field_covariance:
- 0.0
- 0.0
- 0.0
- 0.0
- 0.0
- 0.0
- 0.0
- 0.0
- 0.0
---
header:
  stamp:
    sec: 1754038647
    nanosec: 515546611
  frame_id: imu_link
magnetic_field:
  x: -32.550000000000004
  y: 14.91
  z: -70.042
magnetic_field_covariance:
- 0.0
- 0.0
- 0.0
- 0.0
- 0.0
- 0.0
- 0.0
- 0.0
- 0.0
---
header:
  stamp:
    sec: 1754038647
    nanosec: 535294192
  frame_id: imu_link
magnetic_field:
  x: -32.984
  y: 14.658000000000001
  z: -69.95800000000001
magnetic_field_covariance:
- 0.0
- 0.0
- 0.0
- 0.0
- 0.0
- 0.0
- 0.0
- 0.0
- 0.0
---
header:
  stamp:
    sec: 1754038647
    nanosec: 555502679
  frame_id: imu_link
magnetic_field:
  x: -32.830000000000005
  y: 14.924000000000001
  z: -70.28000000000002
magnetic_field_covariance:
- 0.0
- 0.0
- 0.0
- 0.0
- 0.0
- 0.0
- 0.0
- 0.0
- 0.0
---
header:
  stamp:
    sec: 1754038647
    nanosec: 575528314
  frame_id: imu_link
magnetic_field:
  x: -33.278
  y: 15.078000000000003
  z: -69.944
magnetic_field_covariance:
- 0.0
- 0.0
- 0.0
- 0.0
- 0.0
- 0.0
- 0.0
- 0.0
- 0.0
---
header:
  stamp:
    sec: 1754038647
    nanosec: 595520348
  frame_id: imu_link
magnetic_field:
  x: -32.382000000000005
  y: 14.994000000000002
  z: -70.462
magnetic_field_covariance:
- 0.0
- 0.0
- 0.0
- 0.0
- 0.0
- 0.0
- 0.0
- 0.0
- 0.0
---
header:
  stamp:
    sec: 1754038647
    nanosec: 615671106
  frame_id: imu_link
magnetic_field:
  x: -32.984
  y: 14.798000000000004
  z: -70.742
magnetic_field_covariance:
- 0.0
- 0.0
- 0.0
- 0.0
- 0.0
- 0.0
- 0.0
- 0.0
- 0.0
---
header:
  stamp:
    sec: 1754038647
    nanosec: 635399679
  frame_id: imu_link
magnetic_field:
  x: -32.08800000000001
  y: 14.91
  z: -69.63600000000001
magnetic_field_covariance:
- 0.0
- 0.0
- 0.0
- 0.0
- 0.0
- 0.0
- 0.0
- 0.0
- 0.0
---
header:
  stamp:
    sec: 1754038647
    nanosec: 655436258
  frame_id: imu_link
magnetic_field:
  x: -32.11600000000001
  y: 14.280000000000001
  z: -70.742
magnetic_field_covariance:
- 0.0
- 0.0
- 0.0
- 0.0
- 0.0
- 0.0
- 0.0
- 0.0
- 0.0
---
header:
  stamp:
    sec: 1754038647
    nanosec: 675649833
  frame_id: imu_link
magnetic_field:
  x: -31.920000000000005
  y: 14.266000000000002
  z: -70.75600000000001
magnetic_field_covariance:
- 0.0
- 0.0
- 0.0
- 0.0
- 0.0
- 0.0
- 0.0
- 0.0
- 0.0
---
header:
  stamp:
    sec: 1754038647
    nanosec: 695638476
  frame_id: imu_link
magnetic_field:
  x: -31.472000000000005
  y: 13.944
  z: -70.686
magnetic_field_covariance:
- 0.0
- 0.0
- 0.0
- 0.0
- 0.0
- 0.0
- 0.0
- 0.0
- 0.0
---
header:
  stamp:
    sec: 1754038647
    nanosec: 715560908
  frame_id: imu_link
magnetic_field:
  x: -31.752000000000002
  y: 13.552
  z: -70.266
magnetic_field_covariance:
- 0.0
- 0.0
- 0.0
- 0.0
- 0.0
- 0.0
- 0.0
- 0.0
- 0.0
---
header:
  stamp:
    sec: 1754038647
    nanosec: 735419116
  frame_id: imu_link
magnetic_field:
  x: -31.458000000000002
  y: 13.426000000000002
  z: -70.23800000000001
magnetic_field_covariance:
- 0.0
- 0.0
- 0.0
- 0.0
- 0.0
- 0.0
- 0.0
- 0.0
- 0.0
---
header:
  stamp:
    sec: 1754038647
    nanosec: 755563922
  frame_id: imu_link
magnetic_field:
  x: -31.878
  y: 13.692000000000002
  z: -70.07000000000001
magnetic_field_covariance:
- 0.0
- 0.0
- 0.0
- 0.0
- 0.0
- 0.0
- 0.0
- 0.0
- 0.0
---
header:
  stamp:
    sec: 1754038647
    nanosec: 775653014
  frame_id: imu_link
magnetic_field:
  x: -31.584
  y: 13.174000000000003
  z: -70.29400000000001
magnetic_field_covariance:
- 0.0
- 0.0
- 0.0
- 0.0
- 0.0
- 0.0
- 0.0
- 0.0
- 0.0
---
header:
  stamp:
    sec: 1754038647
    nanosec: 795694265
  frame_id: imu_link
magnetic_field:
  x: -31.738000000000007
  y: 13.356000000000002
  z: -69.608
magnetic_field_covariance:
- 0.0
- 0.0
- 0.0
- 0.0
- 0.0
- 0.0
- 0.0
- 0.0
- 0.0
---
header:
  stamp:
    sec: 1754038647
    nanosec: 815603770
  frame_id: imu_link
magnetic_field:
  x: -32.312000000000005
  y: 12.67
  z: -70.028
magnetic_field_covariance:
- 0.0
- 0.0
- 0.0
- 0.0
- 0.0
- 0.0
- 0.0
- 0.0
- 0.0
---
header:
  stamp:
    sec: 1754038647
    nanosec: 835481626
  frame_id: imu_link
magnetic_field:
  x: -32.074000000000005
  y: 12.726
  z: -70.308
magnetic_field_covariance:
- 0.0
- 0.0
- 0.0
- 0.0
- 0.0
- 0.0
- 0.0
- 0.0
- 0.0
---
header:
  stamp:
    sec: 1754038647
    nanosec: 855560190
  frame_id: imu_link
magnetic_field:
  x: -32.256
  y: 12.922
  z: -70.308
magnetic_field_covariance:
- 0.0
- 0.0
- 0.0
- 0.0
- 0.0
- 0.0
- 0.0
- 0.0
- 0.0
---
header:
  stamp:
    sec: 1754038647
    nanosec: 875562209
  frame_id: imu_link
magnetic_field:
  x: -32.424
  y: 12.768
  z: -70.504
magnetic_field_covariance:
- 0.0
- 0.0
- 0.0
- 0.0
- 0.0
- 0.0
- 0.0
- 0.0
- 0.0
---
header:
  stamp:
    sec: 1754038647
    nanosec: 895641125
  frame_id: imu_link
magnetic_field:
  x: -31.962000000000003
  y: 12.824000000000002
  z: -70.504
magnetic_field_covariance:
- 0.0
- 0.0
- 0.0
- 0.0
- 0.0
- 0.0
- 0.0
- 0.0
- 0.0
---
header:
  stamp:
    sec: 1754038647
    nanosec: 915226719
  frame_id: imu_link
magnetic_field:
  x: -31.598000000000003
  y: 13.062000000000001
  z: -70.58800000000001
magnetic_field_covariance:
- 0.0
- 0.0
- 0.0
- 0.0
- 0.0
- 0.0
- 0.0
- 0.0
- 0.0
---
header:
  stamp:
    sec: 1754038647
    nanosec: 935600265
  frame_id: imu_link
magnetic_field:
  x: -32.018
  y: 13.692000000000002
  z: -70.924
magnetic_field_covariance:
- 0.0
- 0.0
- 0.0
- 0.0
- 0.0
- 0.0
- 0.0
- 0.0
- 0.0
---
header:
  stamp:
    sec: 1754038647
    nanosec: 955637837
  frame_id: imu_link
magnetic_field:
  x: -31.64
  y: 13.146000000000003
  z: -70.602
magnetic_field_covariance:
- 0.0
- 0.0
- 0.0
- 0.0
- 0.0
- 0.0
- 0.0
- 0.0
- 0.0
---
header:
  stamp:
    sec: 1754038647
    nanosec: 976066328
  frame_id: imu_link
magnetic_field:
  x: -31.64
  y: 13.888
  z: -71.456
magnetic_field_covariance:
- 0.0
- 0.0
- 0.0
- 0.0
- 0.0
- 0.0
- 0.0
- 0.0
- 0.0
---
header:
  stamp:
    sec: 1754038647
    nanosec: 995760436
  frame_id: imu_link
magnetic_field:
  x: -31.388000000000005
  y: 13.874
  z: -70.99400000000001
magnetic_field_covariance:
- 0.0
- 0.0
- 0.0
- 0.0
- 0.0
- 0.0
- 0.0
- 0.0
- 0.0
---
header:
  stamp:
    sec: 1754038648
    nanosec: 16089662
  frame_id: imu_link
magnetic_field:
  x: -30.954000000000004
  y: 13.818000000000003
  z: -71.302
magnetic_field_covariance:
- 0.0
- 0.0
- 0.0
- 0.0
- 0.0
- 0.0
- 0.0
- 0.0
- 0.0
---
header:
  stamp:
    sec: 1754038648
    nanosec: 35716216
  frame_id: imu_link
magnetic_field:
  x: -30.618000000000002
  y: 14.686000000000002
  z: -71.4
magnetic_field_covariance:
- 0.0
- 0.0
- 0.0
- 0.0
- 0.0
- 0.0
- 0.0
- 0.0
- 0.0
---
header:
  stamp:
    sec: 1754038648
    nanosec: 55396404
  frame_id: imu_link
magnetic_field:
  x: -31.038000000000004
  y: 14.21
  z: -71.022
magnetic_field_covariance:
- 0.0
- 0.0
- 0.0
- 0.0
- 0.0
- 0.0
- 0.0
- 0.0
- 0.0
---
header:
  stamp:
    sec: 1754038648
    nanosec: 75596955
  frame_id: imu_link
magnetic_field:
  x: -31.024
  y: 14.588000000000001
  z: -71.806
magnetic_field_covariance:
- 0.0
- 0.0
- 0.0
- 0.0
- 0.0
- 0.0
- 0.0
- 0.0
- 0.0
---
header:
  stamp:
    sec: 1754038648
    nanosec: 95965317
  frame_id: imu_link
magnetic_field:
  x: -30.828000000000007
  y: 14.56
  z: -71.176
magnetic_field_covariance:
- 0.0
- 0.0
- 0.0
- 0.0
- 0.0
- 0.0
- 0.0
- 0.0
- 0.0
---
header:
  stamp:
    sec: 1754038648
    nanosec: 115726146
  frame_id: imu_link
magnetic_field:
  x: -31.108000000000004
  y: 14.518
  z: -70.98
magnetic_field_covariance:
- 0.0
- 0.0
- 0.0
- 0.0
- 0.0
- 0.0
- 0.0
- 0.0
- 0.0
---
header:
  stamp:
    sec: 1754038648
    nanosec: 135708100
  frame_id: imu_link
magnetic_field:
  x: -30.884000000000007
  y: 14.532
  z: -71.19000000000001
magnetic_field_covariance:
- 0.0
- 0.0
- 0.0
- 0.0
- 0.0
- 0.0
- 0.0
- 0.0
- 0.0
---
header:
  stamp:
    sec: 1754038648
    nanosec: 155688134
  frame_id: imu_link
magnetic_field:
  x: -30.828000000000007
  y: 14.462000000000003
  z: -71.428
magnetic_field_covariance:
- 0.0
- 0.0
- 0.0
- 0.0
- 0.0
- 0.0
- 0.0
- 0.0
- 0.0
---
header:
  stamp:
    sec: 1754038648
    nanosec: 175680489
  frame_id: imu_link
magnetic_field:
  x: -30.576000000000004
  y: 14.490000000000002
  z: -71.708
magnetic_field_covariance:
- 0.0
- 0.0
- 0.0
- 0.0
- 0.0
- 0.0
- 0.0
- 0.0
- 0.0
---
header:
  stamp:
    sec: 1754038648
    nanosec: 195721132
  frame_id: imu_link
magnetic_field:
  x: -30.646
  y: 14.504
  z: -72.352
magnetic_field_covariance:
- 0.0
- 0.0
- 0.0
- 0.0
- 0.0
- 0.0
- 0.0
- 0.0
- 0.0
---
header:
  stamp:
    sec: 1754038648
    nanosec: 215664845
  frame_id: imu_link
magnetic_field:
  x: -30.716000000000005
  y: 14.742000000000003
  z: -72.33800000000001
magnetic_field_covariance:
- 0.0
- 0.0
- 0.0
- 0.0
- 0.0
- 0.0
- 0.0
- 0.0
- 0.0
---
header:
  stamp:
    sec: 1754038648
    nanosec: 235505324
  frame_id: imu_link
magnetic_field:
  x: -31.150000000000006
  y: 14.728000000000002
  z: -72.534
magnetic_field_covariance:
- 0.0
- 0.0
- 0.0
- 0.0
- 0.0
- 0.0
- 0.0
- 0.0
- 0.0
---
header:
  stamp:
    sec: 1754038648
    nanosec: 255681842
  frame_id: imu_link
magnetic_field:
  x: -30.646
  y: 14.518
  z: -72.156
magnetic_field_covariance:
- 0.0
- 0.0
- 0.0
- 0.0
- 0.0
- 0.0
- 0.0
- 0.0
- 0.0
---
header:
  stamp:
    sec: 1754038648
    nanosec: 275651828
  frame_id: imu_link
magnetic_field:
  x: -30.240000000000006
  y: 14.896
  z: -71.806
magnetic_field_covariance:
- 0.0
- 0.0
- 0.0
- 0.0
- 0.0
- 0.0
- 0.0
- 0.0
- 0.0
---
header:
  stamp:
    sec: 1754038648
    nanosec: 295584917
  frame_id: imu_link
magnetic_field:
  x: -30.058
  y: 14.728000000000002
  z: -72.84200000000001
magnetic_field_covariance:
- 0.0
- 0.0
- 0.0
- 0.0
- 0.0
- 0.0
- 0.0
- 0.0
- 0.0
---
header:
  stamp:
    sec: 1754038648
    nanosec: 315696666
  frame_id: imu_link
magnetic_field:
  x: -30.17
  y: 14.882000000000001
  z: -72.52000000000001
magnetic_field_covariance:
- 0.0
- 0.0
- 0.0
- 0.0
- 0.0
- 0.0
- 0.0
- 0.0
- 0.0
---
header:
  stamp:
    sec: 1754038648
    nanosec: 335854976
  frame_id: imu_link
magnetic_field:
  x: -29.960000000000004
  y: 14.504
  z: -72.352
magnetic_field_covariance:
- 0.0
- 0.0
- 0.0
- 0.0
- 0.0
- 0.0
- 0.0
- 0.0
- 0.0
---
header:
  stamp:
    sec: 1754038648
    nanosec: 355675518
  frame_id: imu_link
magnetic_field:
  x: -29.694000000000003
  y: 14.476000000000003
  z: -72.352
magnetic_field_covariance:
- 0.0
- 0.0
- 0.0
- 0.0
- 0.0
- 0.0
- 0.0
- 0.0
- 0.0
---
header:
  stamp:
    sec: 1754038648
    nanosec: 375626624
  frame_id: imu_link
magnetic_field:
  x: -29.344000000000005
  y: 14.168000000000003
  z: -72.128
magnetic_field_covariance:
- 0.0
- 0.0
- 0.0
- 0.0
- 0.0
- 0.0
- 0.0
- 0.0
- 0.0
---
header:
  stamp:
    sec: 1754038648
    nanosec: 395676227
  frame_id: imu_link
magnetic_field:
  x: -29.736
  y: 14.546000000000001
  z: -72.14200000000001
magnetic_field_covariance:
- 0.0
- 0.0
- 0.0
- 0.0
- 0.0
- 0.0
- 0.0
- 0.0
- 0.0
---
header:
  stamp:
    sec: 1754038648
    nanosec: 415202524
  frame_id: imu_link
magnetic_field:
  x: -29.694000000000003
  y: 14.462000000000003
  z: -72.42200000000001
magnetic_field_covariance:
- 0.0
- 0.0
- 0.0
- 0.0
- 0.0
- 0.0
- 0.0
- 0.0
- 0.0
---
header:
  stamp:
    sec: 1754038648
    nanosec: 435644616
  frame_id: imu_link
magnetic_field:
  x: -29.414
  y: 14.252
  z: -71.89000000000001
magnetic_field_covariance:
- 0.0
- 0.0
- 0.0
- 0.0
- 0.0
- 0.0
- 0.0
- 0.0
- 0.0
---
header:
  stamp:
    sec: 1754038648
    nanosec: 455694955
  frame_id: imu_link
magnetic_field:
  x: -29.540000000000006
  y: 14.224
  z: -72.71600000000001
magnetic_field_covariance:
- 0.0
- 0.0
- 0.0
- 0.0
- 0.0
- 0.0
- 0.0
- 0.0
- 0.0
---
header:
  stamp:
    sec: 1754038648
    nanosec: 475631788
  frame_id: imu_link
magnetic_field:
  x: -29.694000000000003
  y: 14.252
  z: -72.84200000000001
magnetic_field_covariance:
- 0.0
- 0.0
- 0.0
- 0.0
- 0.0
- 0.0
- 0.0
- 0.0
- 0.0
---
header:
  stamp:
    sec: 1754038648
    nanosec: 495823187
  frame_id: imu_link
magnetic_field:
  x: -29.330000000000002
  y: 14.098000000000003
  z: -72.80000000000001
magnetic_field_covariance:
- 0.0
- 0.0
- 0.0
- 0.0
- 0.0
- 0.0
- 0.0
- 0.0
- 0.0
---
header:
  stamp:
    sec: 1754038648
    nanosec: 515536303
  frame_id: imu_link
magnetic_field:
  x: -29.414
  y: 14.504
  z: -73.23400000000001
magnetic_field_covariance:
- 0.0
- 0.0
- 0.0
- 0.0
- 0.0
- 0.0
- 0.0
- 0.0
- 0.0
---
header:
  stamp:
    sec: 1754038648
    nanosec: 535608659
  frame_id: imu_link
magnetic_field:
  x: -29.834000000000003
  y: 14.056000000000001
  z: -72.14200000000001
magnetic_field_covariance:
- 0.0
- 0.0
- 0.0
- 0.0
- 0.0
- 0.0
- 0.0
- 0.0
- 0.0
---
header:
  stamp:
    sec: 1754038648
    nanosec: 555628950
  frame_id: imu_link
magnetic_field:
  x: -29.316000000000003
  y: 14.028000000000002
  z: -72.66
magnetic_field_covariance:
- 0.0
- 0.0
- 0.0
- 0.0
- 0.0
- 0.0
- 0.0
- 0.0
- 0.0
---
header:
  stamp:
    sec: 1754038648
    nanosec: 575610200
  frame_id: imu_link
magnetic_field:
  x: -29.554000000000002
  y: 14.658000000000001
  z: -72.85600000000001
magnetic_field_covariance:
- 0.0
- 0.0
- 0.0
- 0.0
- 0.0
- 0.0
- 0.0
- 0.0
- 0.0
---
header:
  stamp:
    sec: 1754038648
    nanosec: 595686940
  frame_id: imu_link
magnetic_field:
  x: -29.176000000000002
  y: 14.658000000000001
  z: -73.19200000000001
magnetic_field_covariance:
- 0.0
- 0.0
- 0.0
- 0.0
- 0.0
- 0.0
- 0.0
- 0.0
- 0.0
---
header:
  stamp:
    sec: 1754038648
    nanosec: 615597597
  frame_id: imu_link
magnetic_field:
  x: -29.050000000000004
  y: 13.902000000000001
  z: -72.84200000000001
magnetic_field_covariance:
- 0.0
- 0.0
- 0.0
- 0.0
- 0.0
- 0.0
- 0.0
- 0.0
- 0.0
---
header:
  stamp:
    sec: 1754038648
    nanosec: 635638016
  frame_id: imu_link
magnetic_field:
  x: -29.372000000000003
  y: 14.854000000000001
  z: -72.61800000000001
magnetic_field_covariance:
- 0.0
- 0.0
- 0.0
- 0.0
- 0.0
- 0.0
- 0.0
- 0.0
- 0.0
---
header:
  stamp:
    sec: 1754038648
    nanosec: 655624866
  frame_id: imu_link
magnetic_field:
  x: -29.652
  y: 14.406000000000002
  z: -73.052
magnetic_field_covariance:
- 0.0
- 0.0
- 0.0
- 0.0
- 0.0
- 0.0
- 0.0
- 0.0
- 0.0
---
header:
  stamp:
    sec: 1754038648
    nanosec: 675597316
  frame_id: imu_link
magnetic_field:
  x: -29.764000000000003
  y: 14.686000000000002
  z: -73.94800000000001
magnetic_field_covariance:
- 0.0
- 0.0
- 0.0
- 0.0
- 0.0
- 0.0
- 0.0
- 0.0
- 0.0
---
header:
  stamp:
    sec: 1754038648
    nanosec: 695590214
  frame_id: imu_link
magnetic_field:
  x: -29.316000000000003
  y: 14.364000000000003
  z: -73.27600000000001
magnetic_field_covariance:
- 0.0
- 0.0
- 0.0
- 0.0
- 0.0
- 0.0
- 0.0
- 0.0
- 0.0
---
header:
  stamp:
    sec: 1754038648
    nanosec: 715951984
  frame_id: imu_link
magnetic_field:
  x: -30.548000000000002
  y: 14.280000000000001
  z: -73.066
magnetic_field_covariance:
- 0.0
- 0.0
- 0.0
- 0.0
- 0.0
- 0.0
- 0.0
- 0.0
- 0.0
---
header:
  stamp:
    sec: 1754038648
    nanosec: 735434376
  frame_id: imu_link
magnetic_field:
  x: -29.596000000000007
  y: 14.126000000000003
  z: -72.828
magnetic_field_covariance:
- 0.0
- 0.0
- 0.0
- 0.0
- 0.0
- 0.0
- 0.0
- 0.0
- 0.0
---
header:
  stamp:
    sec: 1754038648
    nanosec: 755692720
  frame_id: imu_link
magnetic_field:
  x: -30.058
  y: 14.014000000000001
  z: -73.37400000000001
magnetic_field_covariance:
- 0.0
- 0.0
- 0.0
- 0.0
- 0.0
- 0.0
- 0.0
- 0.0
- 0.0
---
header:
  stamp:
    sec: 1754038648
    nanosec: 775441325
  frame_id: imu_link
magnetic_field:
  x: -29.498
  y: 14.686000000000002
  z: -72.61800000000001
magnetic_field_covariance:
- 0.0
- 0.0
- 0.0
- 0.0
- 0.0
- 0.0
- 0.0
- 0.0
- 0.0
---
header:
  stamp:
    sec: 1754038648
    nanosec: 795600595
  frame_id: imu_link
magnetic_field:
  x: -29.750000000000004
  y: 14.084000000000001
  z: -73.15
magnetic_field_covariance:
- 0.0
- 0.0
- 0.0
- 0.0
- 0.0
- 0.0
- 0.0
- 0.0
- 0.0
---
header:
  stamp:
    sec: 1754038648
    nanosec: 815685207
  frame_id: imu_link
magnetic_field:
  x: -29.442
  y: 14.686000000000002
  z: -73.64
magnetic_field_covariance:
- 0.0
- 0.0
- 0.0
- 0.0
- 0.0
- 0.0
- 0.0
- 0.0
- 0.0
---
header:
  stamp:
    sec: 1754038648
    nanosec: 835681561
  frame_id: imu_link
magnetic_field:
  x: -29.82
  y: 14.700000000000003
  z: -72.94
magnetic_field_covariance:
- 0.0
- 0.0
- 0.0
- 0.0
- 0.0
- 0.0
- 0.0
- 0.0
- 0.0
---
header:
  stamp:
    sec: 1754038648
    nanosec: 855698460
  frame_id: imu_link
magnetic_field:
  x: -29.442
  y: 14.756000000000002
  z: -73.584
magnetic_field_covariance:
- 0.0
- 0.0
- 0.0
- 0.0
- 0.0
- 0.0
- 0.0
- 0.0
- 0.0
---
header:
  stamp:
    sec: 1754038648
    nanosec: 875226965
  frame_id: imu_link
magnetic_field:
  x: -29.708000000000002
  y: 14.812000000000003
  z: -73.542
magnetic_field_covariance:
- 0.0
- 0.0
- 0.0
- 0.0
- 0.0
- 0.0
- 0.0
- 0.0
- 0.0
---
header:
  stamp:
    sec: 1754038648
    nanosec: 895660288
  frame_id: imu_link
magnetic_field:
  x: -30.310000000000002
  y: 14.490000000000002
  z: -73.164
magnetic_field_covariance:
- 0.0
- 0.0
- 0.0
- 0.0
- 0.0
- 0.0
- 0.0
- 0.0
- 0.0
---
header:
  stamp:
    sec: 1754038648
    nanosec: 915666083
  frame_id: imu_link
magnetic_field:
  x: -29.792
  y: 14.406000000000002
  z: -73.29
magnetic_field_covariance:
- 0.0
- 0.0
- 0.0
- 0.0
- 0.0
- 0.0
- 0.0
- 0.0
- 0.0
---
header:
  stamp:
    sec: 1754038648
    nanosec: 935686854
  frame_id: imu_link
magnetic_field:
  x: -29.960000000000004
  y: 14.224
  z: -73.27600000000001
magnetic_field_covariance:
- 0.0
- 0.0
- 0.0
- 0.0
- 0.0
- 0.0
- 0.0
- 0.0
- 0.0
---
header:
  stamp:
    sec: 1754038648
    nanosec: 955669320
  frame_id: imu_link
magnetic_field:
  x: -29.792
  y: 14.714000000000002
  z: -73.72400000000002
magnetic_field_covariance:
- 0.0
- 0.0
- 0.0
- 0.0
- 0.0
- 0.0
- 0.0
- 0.0
- 0.0
---
header:
  stamp:
    sec: 1754038648
    nanosec: 975879215
  frame_id: imu_link
magnetic_field:
  x: -29.834000000000003
  y: 14.028000000000002
  z: -73.038
magnetic_field_covariance:
- 0.0
- 0.0
- 0.0
- 0.0
- 0.0
- 0.0
- 0.0
- 0.0
- 0.0
---
header:
  stamp:
    sec: 1754038648
    nanosec: 996050869
  frame_id: imu_link
magnetic_field:
  x: -29.176000000000002
  y: 14.616000000000001
  z: -73.388
magnetic_field_covariance:
- 0.0
- 0.0
- 0.0
- 0.0
- 0.0
- 0.0
- 0.0
- 0.0
- 0.0
---
header:
  stamp:
    sec: 1754038649
    nanosec: 15496875
  frame_id: imu_link
magnetic_field:
  x: -29.862000000000005
  y: 14.056000000000001
  z: -73.13600000000001
magnetic_field_covariance:
- 0.0
- 0.0
- 0.0
- 0.0
- 0.0
- 0.0
- 0.0
- 0.0
- 0.0
---
header:
  stamp:
    sec: 1754038649
    nanosec: 35687794
  frame_id: imu_link
magnetic_field:
  x: -29.932000000000002
  y: 13.916
  z: -73.36
magnetic_field_covariance:
- 0.0
- 0.0
- 0.0
- 0.0
- 0.0
- 0.0
- 0.0
- 0.0
- 0.0
---
header:
  stamp:
    sec: 1754038649
    nanosec: 55798134
  frame_id: imu_link
magnetic_field:
  x: -30.072000000000003
  y: 14.098000000000003
  z: -73.72400000000002
magnetic_field_covariance:
- 0.0
- 0.0
- 0.0
- 0.0
- 0.0
- 0.0
- 0.0
- 0.0
- 0.0
---
header:
  stamp:
    sec: 1754038649
    nanosec: 75420273
  frame_id: imu_link
magnetic_field:
  x: -29.82
  y: 14.196
  z: -73.45800000000001
magnetic_field_covariance:
- 0.0
- 0.0
- 0.0
- 0.0
- 0.0
- 0.0
- 0.0
- 0.0
- 0.0
---
header:
  stamp:
    sec: 1754038649
    nanosec: 95828508
  frame_id: imu_link
magnetic_field:
  x: -30.380000000000003
  y: 14.756000000000002
  z: -73.626
magnetic_field_covariance:
- 0.0
- 0.0
- 0.0
- 0.0
- 0.0
- 0.0
- 0.0
- 0.0
- 0.0
---
header:
  stamp:
    sec: 1754038649
    nanosec: 115710460
  frame_id: imu_link
magnetic_field:
  x: -30.17
  y: 14.700000000000003
  z: -73.61200000000001
magnetic_field_covariance:
- 0.0
- 0.0
- 0.0
- 0.0
- 0.0
- 0.0
- 0.0
- 0.0
- 0.0
---
header:
  stamp:
    sec: 1754038649
    nanosec: 135681661
  frame_id: imu_link
magnetic_field:
  x: -29.932000000000002
  y: 14.672000000000002
  z: -73.052
magnetic_field_covariance:
- 0.0
- 0.0
- 0.0
- 0.0
- 0.0
- 0.0
- 0.0
- 0.0
- 0.0
---
header:
  stamp:
    sec: 1754038649
    nanosec: 155635359
  frame_id: imu_link
magnetic_field:
  x: -28.938000000000002
  y: 14.252
  z: -73.822
magnetic_field_covariance:
- 0.0
- 0.0
- 0.0
- 0.0
- 0.0
- 0.0
- 0.0
- 0.0
- 0.0
---
header:
  stamp:
    sec: 1754038649
    nanosec: 175582208
  frame_id: imu_link
magnetic_field:
  x: -29.862000000000005
  y: 13.832000000000003
  z: -73.65400000000001
magnetic_field_covariance:
- 0.0
- 0.0
- 0.0
- 0.0
- 0.0
- 0.0
- 0.0
- 0.0
- 0.0
---
header:
  stamp:
    sec: 1754038649
    nanosec: 195608451
  frame_id: imu_link
magnetic_field:
  x: -29.428000000000004
  y: 13.916
  z: -73.33200000000001
magnetic_field_covariance:
- 0.0
- 0.0
- 0.0
- 0.0
- 0.0
- 0.0
- 0.0
- 0.0
- 0.0
---
header:
  stamp:
    sec: 1754038649
    nanosec: 215652966
  frame_id: imu_link
magnetic_field:
  x: -29.68
  y: 13.986
  z: -72.94
magnetic_field_covariance:
- 0.0
- 0.0
- 0.0
- 0.0
- 0.0
- 0.0
- 0.0
- 0.0
- 0.0
---
header:
  stamp:
    sec: 1754038649
    nanosec: 235242816
  frame_id: imu_link
magnetic_field:
  x: -29.624000000000006
  y: 13.762000000000002
  z: -73.668
magnetic_field_covariance:
- 0.0
- 0.0
- 0.0
- 0.0
- 0.0
- 0.0
- 0.0
- 0.0
- 0.0
---
header:
  stamp:
    sec: 1754038649
    nanosec: 255634667
  frame_id: imu_link
magnetic_field:
  x: -29.470000000000002
  y: 13.86
  z: -73.416
magnetic_field_covariance:
- 0.0
- 0.0
- 0.0
- 0.0
- 0.0
- 0.0
- 0.0
- 0.0
- 0.0
---
header:
  stamp:
    sec: 1754038649
    nanosec: 275858930
  frame_id: imu_link
magnetic_field:
  x: -28.882
  y: 14.756000000000002
  z: -72.75800000000001
magnetic_field_covariance:
- 0.0
- 0.0
- 0.0
- 0.0
- 0.0
- 0.0
- 0.0
- 0.0
- 0.0
---
header:
  stamp:
    sec: 1754038649
    nanosec: 295786547
  frame_id: imu_link
magnetic_field:
  x: -28.980000000000004
  y: 13.678
  z: -73.528
magnetic_field_covariance:
- 0.0
- 0.0
- 0.0
- 0.0
- 0.0
- 0.0
- 0.0
- 0.0
- 0.0
---
header:
  stamp:
    sec: 1754038649
    nanosec: 315603313
  frame_id: imu_link
magnetic_field:
  x: -28.504
  y: 14.112000000000002
  z: -73.766
magnetic_field_covariance:
- 0.0
- 0.0
- 0.0
- 0.0
- 0.0
- 0.0
- 0.0
- 0.0
- 0.0
---
header:
  stamp:
    sec: 1754038649
    nanosec: 335768471
  frame_id: imu_link
magnetic_field:
  x: -28.476000000000003
  y: 13.916
  z: -74.116
magnetic_field_covariance:
- 0.0
- 0.0
- 0.0
- 0.0
- 0.0
- 0.0
- 0.0
- 0.0
- 0.0
---
header:
  stamp:
    sec: 1754038649
    nanosec: 355690584
  frame_id: imu_link
magnetic_field:
  x: -28.504
  y: 14.21
  z: -73.766
magnetic_field_covariance:
- 0.0
- 0.0
- 0.0
- 0.0
- 0.0
- 0.0
- 0.0
- 0.0
- 0.0
---
header:
  stamp:
    sec: 1754038649
    nanosec: 375693562
  frame_id: imu_link
magnetic_field:
  x: -28.196000000000005
  y: 13.762000000000002
  z: -73.69600000000001
magnetic_field_covariance:
- 0.0
- 0.0
- 0.0
- 0.0
- 0.0
- 0.0
- 0.0
- 0.0
- 0.0
---
header:
  stamp:
    sec: 1754038649
    nanosec: 395693820
  frame_id: imu_link
magnetic_field:
  x: -27.524000000000004
  y: 14.420000000000002
  z: -74.15800000000002
magnetic_field_covariance:
- 0.0
- 0.0
- 0.0
- 0.0
- 0.0
- 0.0
- 0.0
- 0.0
- 0.0
---
header:
  stamp:
    sec: 1754038649
    nanosec: 415672798
  frame_id: imu_link
magnetic_field:
  x: -26.558000000000003
  y: 14.616000000000001
  z: -74.03200000000001
magnetic_field_covariance:
- 0.0
- 0.0
- 0.0
- 0.0
- 0.0
- 0.0
- 0.0
- 0.0
- 0.0
---
header:
  stamp:
    sec: 1754038649
    nanosec: 435744258
  frame_id: imu_link
magnetic_field:
  x: -26.082000000000004
  y: 14.91
  z: -75.08200000000001
magnetic_field_covariance:
- 0.0
- 0.0
- 0.0
- 0.0
- 0.0
- 0.0
- 0.0
- 0.0
- 0.0
---
header:
  stamp:
    sec: 1754038649
    nanosec: 455679107
  frame_id: imu_link
magnetic_field:
  x: -25.452
  y: 15.036000000000001
  z: -75.01200000000001
magnetic_field_covariance:
- 0.0
- 0.0
- 0.0
- 0.0
- 0.0
- 0.0
- 0.0
- 0.0
- 0.0
---
header:
  stamp:
    sec: 1754038649
    nanosec: 475659717
  frame_id: imu_link
magnetic_field:
  x: -24.696
  y: 15.316000000000003
  z: -75.68400000000001
magnetic_field_covariance:
- 0.0
- 0.0
- 0.0
- 0.0
- 0.0
- 0.0
- 0.0
- 0.0
- 0.0
---
header:
  stamp:
    sec: 1754038649
    nanosec: 495814219
  frame_id: imu_link
magnetic_field:
  x: -24.290000000000003
  y: 15.330000000000002
  z: -76.25800000000001
magnetic_field_covariance:
- 0.0
- 0.0
- 0.0
- 0.0
- 0.0
- 0.0
- 0.0
- 0.0
- 0.0
---
header:
  stamp:
    sec: 1754038649
    nanosec: 515478758
  frame_id: imu_link
magnetic_field:
  x: -23.072000000000003
  y: 15.540000000000001
  z: -76.81800000000001
magnetic_field_covariance:
- 0.0
- 0.0
- 0.0
- 0.0
- 0.0
- 0.0
- 0.0
- 0.0
- 0.0
---
header:
  stamp:
    sec: 1754038649
    nanosec: 535719341
  frame_id: imu_link
magnetic_field:
  x: -22.582
  y: 15.848
  z: -76.44000000000001
magnetic_field_covariance:
- 0.0
- 0.0
- 0.0
- 0.0
- 0.0
- 0.0
- 0.0
- 0.0
- 0.0
---
header:
  stamp:
    sec: 1754038649
    nanosec: 555507531
  frame_id: imu_link
magnetic_field:
  x: -21.462000000000003
  y: 15.414000000000003
  z: -77.00000000000001
magnetic_field_covariance:
- 0.0
- 0.0
- 0.0
- 0.0
- 0.0
- 0.0
- 0.0
- 0.0
- 0.0
---
header:
  stamp:
    sec: 1754038649
    nanosec: 575691538
  frame_id: imu_link
magnetic_field:
  x: -20.062
  y: 15.876000000000001
  z: -76.888
magnetic_field_covariance:
- 0.0
- 0.0
- 0.0
- 0.0
- 0.0
- 0.0
- 0.0
- 0.0
- 0.0
---
header:
  stamp:
    sec: 1754038649
    nanosec: 595457839
  frame_id: imu_link
magnetic_field:
  x: -19.6
  y: 15.946000000000002
  z: -77.812
magnetic_field_covariance:
- 0.0
- 0.0
- 0.0
- 0.0
- 0.0
- 0.0
- 0.0
- 0.0
- 0.0
---
header:
  stamp:
    sec: 1754038649
    nanosec: 615711127
  frame_id: imu_link
magnetic_field:
  x: -18.69
  y: 16.478
  z: -77.58800000000001
magnetic_field_covariance:
- 0.0
- 0.0
- 0.0
- 0.0
- 0.0
- 0.0
- 0.0
- 0.0
- 0.0
---
header:
  stamp:
    sec: 1754038649
    nanosec: 635700409
  frame_id: imu_link
magnetic_field:
  x: -17.892000000000003
  y: 16.912000000000003
  z: -77.434
magnetic_field_covariance:
- 0.0
- 0.0
- 0.0
- 0.0
- 0.0
- 0.0
- 0.0
- 0.0
- 0.0
---
header:
  stamp:
    sec: 1754038649
    nanosec: 655692411
  frame_id: imu_link
magnetic_field:
  x: -17.304000000000002
  y: 16.688000000000002
  z: -77.686
magnetic_field_covariance:
- 0.0
- 0.0
- 0.0
- 0.0
- 0.0
- 0.0
- 0.0
- 0.0
- 0.0
---
header:
  stamp:
    sec: 1754038649
    nanosec: 675649724
  frame_id: imu_link
magnetic_field:
  x: -16.660000000000004
  y: 17.108
  z: -77.686
magnetic_field_covariance:
- 0.0
- 0.0
- 0.0
- 0.0
- 0.0
- 0.0
- 0.0
- 0.0
- 0.0
---
header:
  stamp:
    sec: 1754038649
    nanosec: 695685696
  frame_id: imu_link
magnetic_field:
  x: -16.226000000000003
  y: 17.234
  z: -78.358
magnetic_field_covariance:
- 0.0
- 0.0
- 0.0
- 0.0
- 0.0
- 0.0
- 0.0
- 0.0
- 0.0
---
header:
  stamp:
    sec: 1754038649
    nanosec: 715727811
  frame_id: imu_link
magnetic_field:
  x: -15.862000000000002
  y: 17.766000000000002
  z: -78.68
magnetic_field_covariance:
- 0.0
- 0.0
- 0.0
- 0.0
- 0.0
- 0.0
- 0.0
- 0.0
- 0.0
---
header:
  stamp:
    sec: 1754038649
    nanosec: 735365950
  frame_id: imu_link
magnetic_field:
  x: -15.358000000000002
  y: 18.522000000000002
  z: -78.49800000000002
magnetic_field_covariance:
- 0.0
- 0.0
- 0.0
- 0.0
- 0.0
- 0.0
- 0.0
- 0.0
- 0.0
---
header:
  stamp:
    sec: 1754038649
    nanosec: 755870987
  frame_id: imu_link
magnetic_field:
  x: -15.092000000000002
  y: 17.178
  z: -78.596
magnetic_field_covariance:
- 0.0
- 0.0
- 0.0
- 0.0
- 0.0
- 0.0
- 0.0
- 0.0
- 0.0
---
header:
  stamp:
    sec: 1754038649
    nanosec: 775437348
  frame_id: imu_link
magnetic_field:
  x: -15.288000000000002
  y: 17.640000000000004
  z: -78.4
magnetic_field_covariance:
- 0.0
- 0.0
- 0.0
- 0.0
- 0.0
- 0.0
- 0.0
- 0.0
- 0.0
---
header:
  stamp:
    sec: 1754038649
    nanosec: 795757357
  frame_id: imu_link
magnetic_field:
  x: -14.658000000000001
  y: 17.71
  z: -78.568
magnetic_field_covariance:
- 0.0
- 0.0
- 0.0
- 0.0
- 0.0
- 0.0
- 0.0
- 0.0
- 0.0
---
header:
  stamp:
    sec: 1754038649
    nanosec: 815630701
  frame_id: imu_link
magnetic_field:
  x: -14.56
  y: 17.248
  z: -77.63000000000001
magnetic_field_covariance:
- 0.0
- 0.0
- 0.0
- 0.0
- 0.0
- 0.0
- 0.0
- 0.0
- 0.0
---
header:
  stamp:
    sec: 1754038649
    nanosec: 835463275
  frame_id: imu_link
magnetic_field:
  x: -14.112000000000002
  y: 17.416
  z: -78.20400000000001
magnetic_field_covariance:
- 0.0
- 0.0
- 0.0
- 0.0
- 0.0
- 0.0
- 0.0
- 0.0
- 0.0
---
header:
  stamp:
    sec: 1754038649
    nanosec: 855621457
  frame_id: imu_link
magnetic_field:
  x: -13.356000000000002
  y: 16.464000000000002
  z: -78.00800000000001
magnetic_field_covariance:
- 0.0
- 0.0
- 0.0
- 0.0
- 0.0
- 0.0
- 0.0
- 0.0
- 0.0
---
header:
  stamp:
    sec: 1754038649
    nanosec: 875212203
  frame_id: imu_link
magnetic_field:
  x: -13.006
  y: 16.534000000000002
  z: -78.24600000000001
magnetic_field_covariance:
- 0.0
- 0.0
- 0.0
- 0.0
- 0.0
- 0.0
- 0.0
- 0.0
- 0.0
---
header:
  stamp:
    sec: 1754038649
    nanosec: 895612758
  frame_id: imu_link
magnetic_field:
  x: -12.516000000000002
  y: 16.324
  z: -77.658
magnetic_field_covariance:
- 0.0
- 0.0
- 0.0
- 0.0
- 0.0
- 0.0
- 0.0
- 0.0
- 0.0
---
header:
  stamp:
    sec: 1754038649
    nanosec: 915606040
  frame_id: imu_link
magnetic_field:
  x: -12.796000000000001
  y: 16.1
  z: -77.67200000000001
magnetic_field_covariance:
- 0.0
- 0.0
- 0.0
- 0.0
- 0.0
- 0.0
- 0.0
- 0.0
- 0.0
---
header:
  stamp:
    sec: 1754038649
    nanosec: 935622363
  frame_id: imu_link
magnetic_field:
  x: -11.858000000000002
  y: 15.82
  z: -77.09800000000001
magnetic_field_covariance:
- 0.0
- 0.0
- 0.0
- 0.0
- 0.0
- 0.0
- 0.0
- 0.0
- 0.0
---
header:
  stamp:
    sec: 1754038649
    nanosec: 955627197
  frame_id: imu_link
magnetic_field:
  x: -11.998000000000001
  y: 15.274000000000001
  z: -77.14000000000001
magnetic_field_covariance:
- 0.0
- 0.0
- 0.0
- 0.0
- 0.0
- 0.0
- 0.0
- 0.0
- 0.0
---
header:
  stamp:
    sec: 1754038649
    nanosec: 975624543
  frame_id: imu_link
magnetic_field:
  x: -11.97
  y: 14.952000000000002
  z: -76.706
magnetic_field_covariance:
- 0.0
- 0.0
- 0.0
- 0.0
- 0.0
- 0.0
- 0.0
- 0.0
- 0.0
---
header:
  stamp:
    sec: 1754038649
    nanosec: 995623394
  frame_id: imu_link
magnetic_field:
  x: -11.592
  y: 14.924000000000001
  z: -76.73400000000001
magnetic_field_covariance:
- 0.0
- 0.0
- 0.0
- 0.0
- 0.0
- 0.0
- 0.0
- 0.0
- 0.0
---
header:
  stamp:
    sec: 1754038650
    nanosec: 15600963
  frame_id: imu_link
magnetic_field:
  x: -10.822000000000001
  y: 14.476000000000003
  z: -76.608
magnetic_field_covariance:
- 0.0
- 0.0
- 0.0
- 0.0
- 0.0
- 0.0
- 0.0
- 0.0
- 0.0
---
header:
  stamp:
    sec: 1754038650
    nanosec: 35639207
  frame_id: imu_link
magnetic_field:
  x: -10.654000000000002
  y: 15.022000000000002
  z: -77.238
magnetic_field_covariance:
- 0.0
- 0.0
- 0.0
- 0.0
- 0.0
- 0.0
- 0.0
- 0.0
- 0.0
---
header:
  stamp:
    sec: 1754038650
    nanosec: 55641033
  frame_id: imu_link
magnetic_field:
  x: -10.892000000000001
  y: 14.238000000000001
  z: -76.81800000000001
magnetic_field_covariance:
- 0.0
- 0.0
- 0.0
- 0.0
- 0.0
- 0.0
- 0.0
- 0.0
- 0.0
---
header:
  stamp:
    sec: 1754038650
    nanosec: 75809711
  frame_id: imu_link
magnetic_field:
  x: -10.864
  y: 14.084000000000001
  z: -76.72000000000001
magnetic_field_covariance:
- 0.0
- 0.0
- 0.0
- 0.0
- 0.0
- 0.0
- 0.0
- 0.0
- 0.0
---
header:
  stamp:
    sec: 1754038650
    nanosec: 95862866
  frame_id: imu_link
magnetic_field:
  x: -10.766
  y: 14.014000000000001
  z: -76.91600000000001
magnetic_field_covariance:
- 0.0
- 0.0
- 0.0
- 0.0
- 0.0
- 0.0
- 0.0
- 0.0
- 0.0
---
header:
  stamp:
    sec: 1754038650
    nanosec: 115585134
  frame_id: imu_link
magnetic_field:
  x: -10.486
  y: 14.014000000000001
  z: -75.796
magnetic_field_covariance:
- 0.0
- 0.0
- 0.0
- 0.0
- 0.0
- 0.0
- 0.0
- 0.0
- 0.0
---
header:
  stamp:
    sec: 1754038650
    nanosec: 135578033
  frame_id: imu_link
magnetic_field:
  x: -9.702000000000002
  y: 13.874
  z: -75.894
magnetic_field_covariance:
- 0.0
- 0.0
- 0.0
- 0.0
- 0.0
- 0.0
- 0.0
- 0.0
- 0.0
---
header:
  stamp:
    sec: 1754038650
    nanosec: 155598739
  frame_id: imu_link
magnetic_field:
  x: -9.478
  y: 13.706000000000001
  z: -76.846
magnetic_field_covariance:
- 0.0
- 0.0
- 0.0
- 0.0
- 0.0
- 0.0
- 0.0
- 0.0
- 0.0
---
header:
  stamp:
    sec: 1754038650
    nanosec: 175582581
  frame_id: imu_link
magnetic_field:
  x: -9.814
  y: 13.930000000000001
  z: -76.53800000000001
magnetic_field_covariance:
- 0.0
- 0.0
- 0.0
- 0.0
- 0.0
- 0.0
- 0.0
- 0.0
- 0.0
---
header:
  stamp:
    sec: 1754038650
    nanosec: 195370963
  frame_id: imu_link
magnetic_field:
  x: -9.072000000000001
  y: 13.468000000000002
  z: -76.53800000000001
magnetic_field_covariance:
- 0.0
- 0.0
- 0.0
- 0.0
- 0.0
- 0.0
- 0.0
- 0.0
- 0.0
---
header:
  stamp:
    sec: 1754038650
    nanosec: 215451159
  frame_id: imu_link
magnetic_field:
  x: -8.876000000000001
  y: 13.832000000000003
  z: -76.73400000000001
magnetic_field_covariance:
- 0.0
- 0.0
- 0.0
- 0.0
- 0.0
- 0.0
- 0.0
- 0.0
- 0.0
---
header:
  stamp:
    sec: 1754038650
    nanosec: 235626653
  frame_id: imu_link
magnetic_field:
  x: -8.316
  y: 13.65
  z: -76.272
magnetic_field_covariance:
- 0.0
- 0.0
- 0.0
- 0.0
- 0.0
- 0.0
- 0.0
- 0.0
- 0.0
---
header:
  stamp:
    sec: 1754038650
    nanosec: 255723009
  frame_id: imu_link
magnetic_field:
  x: -7.532000000000001
  y: 13.916
  z: -76.69200000000001
magnetic_field_covariance:
- 0.0
- 0.0
- 0.0
- 0.0
- 0.0
- 0.0
- 0.0
- 0.0
- 0.0
---
header:
  stamp:
    sec: 1754038650
    nanosec: 275428285
  frame_id: imu_link
magnetic_field:
  x: -7.826000000000001
  y: 14.21
  z: -76.902
magnetic_field_covariance:
- 0.0
- 0.0
- 0.0
- 0.0
- 0.0
- 0.0
- 0.0
- 0.0
- 0.0
---
header:
  stamp:
    sec: 1754038650
    nanosec: 295608355
  frame_id: imu_link
magnetic_field:
  x: -7.546000000000001
  y: 14.308000000000002
  z: -76.39800000000001
magnetic_field_covariance:
- 0.0
- 0.0
- 0.0
- 0.0
- 0.0
- 0.0
- 0.0
- 0.0
- 0.0
---
header:
  stamp:
    sec: 1754038650
    nanosec: 315452386
  frame_id: imu_link
magnetic_field:
  x: -7.938000000000001
  y: 14.224
  z: -76.30000000000001
magnetic_field_covariance:
- 0.0
- 0.0
- 0.0
- 0.0
- 0.0
- 0.0
- 0.0
- 0.0
- 0.0
---
header:
  stamp:
    sec: 1754038650
    nanosec: 335740171
  frame_id: imu_link
magnetic_field:
  x: -7.378000000000001
  y: 13.636000000000001
  z: -76.39800000000001
magnetic_field_covariance:
- 0.0
- 0.0
- 0.0
- 0.0
- 0.0
- 0.0
- 0.0
- 0.0
- 0.0
---
header:
  stamp:
    sec: 1754038650
    nanosec: 355595818
  frame_id: imu_link
magnetic_field:
  x: -7.210000000000001
  y: 13.734000000000002
  z: -76.35600000000001
magnetic_field_covariance:
- 0.0
- 0.0
- 0.0
- 0.0
- 0.0
- 0.0
- 0.0
- 0.0
- 0.0
---
header:
  stamp:
    sec: 1754038650
    nanosec: 375398696
  frame_id: imu_link
magnetic_field:
  x: -6.734000000000001
  y: 14.21
  z: -76.38400000000001
magnetic_field_covariance:
- 0.0
- 0.0
- 0.0
- 0.0
- 0.0
- 0.0
- 0.0
- 0.0
- 0.0
---
header:
  stamp:
    sec: 1754038650
    nanosec: 395660432
  frame_id: imu_link
magnetic_field:
  x: -6.454
  y: 14.378000000000002
  z: -76.174
magnetic_field_covariance:
- 0.0
- 0.0
- 0.0
- 0.0
- 0.0
- 0.0
- 0.0
- 0.0
- 0.0
---
header:
  stamp:
    sec: 1754038650
    nanosec: 415617137
  frame_id: imu_link
magnetic_field:
  x: -6.090000000000001
  y: 14.070000000000002
  z: -76.034
magnetic_field_covariance:
- 0.0
- 0.0
- 0.0
- 0.0
- 0.0
- 0.0
- 0.0
- 0.0
- 0.0
---
header:
  stamp:
    sec: 1754038650
    nanosec: 435631156
  frame_id: imu_link
magnetic_field:
  x: -6.174
  y: 13.874
  z: -76.412
magnetic_field_covariance:
- 0.0
- 0.0
- 0.0
- 0.0
- 0.0
- 0.0
- 0.0
- 0.0
- 0.0
---
header:
  stamp:
    sec: 1754038650
    nanosec: 455654070
  frame_id: imu_link
magnetic_field:
  x: -6.594000000000001
  y: 14.644000000000002
  z: -76.02000000000001
magnetic_field_covariance:
- 0.0
- 0.0
- 0.0
- 0.0
- 0.0
- 0.0
- 0.0
- 0.0
- 0.0
---
header:
  stamp:
    sec: 1754038650
    nanosec: 475704826
  frame_id: imu_link
magnetic_field:
  x: -6.146000000000001
  y: 14.308000000000002
  z: -76.706
magnetic_field_covariance:
- 0.0
- 0.0
- 0.0
- 0.0
- 0.0
- 0.0
- 0.0
- 0.0
- 0.0
---
header:
  stamp:
    sec: 1754038650
    nanosec: 495640827
  frame_id: imu_link
magnetic_field:
  x: -6.216000000000001
  y: 14.742000000000003
  z: -76.37
magnetic_field_covariance:
- 0.0
- 0.0
- 0.0
- 0.0
- 0.0
- 0.0
- 0.0
- 0.0
- 0.0
---
header:
  stamp:
    sec: 1754038650
    nanosec: 515778240
  frame_id: imu_link
magnetic_field:
  x: -5.152
  y: 14.490000000000002
  z: -76.44000000000001
magnetic_field_covariance:
- 0.0
- 0.0
- 0.0
- 0.0
- 0.0
- 0.0
- 0.0
- 0.0
- 0.0
---
header:
  stamp:
    sec: 1754038650
    nanosec: 535410650
  frame_id: imu_link
magnetic_field:
  x: -5.222
  y: 14.336000000000002
  z: -76.69200000000001
magnetic_field_covariance:
- 0.0
- 0.0
- 0.0
- 0.0
- 0.0
- 0.0
- 0.0
- 0.0
- 0.0
---
header:
  stamp:
    sec: 1754038650
    nanosec: 555372700
  frame_id: imu_link
magnetic_field:
  x: -5.11
  y: 14.266000000000002
  z: -76.146
magnetic_field_covariance:
- 0.0
- 0.0
- 0.0
- 0.0
- 0.0
- 0.0
- 0.0
- 0.0
- 0.0
---
header:
  stamp:
    sec: 1754038650
    nanosec: 575321949
  frame_id: imu_link
magnetic_field:
  x: -4.662
  y: 14.770000000000003
  z: -76.66400000000002
magnetic_field_covariance:
- 0.0
- 0.0
- 0.0
- 0.0
- 0.0
- 0.0
- 0.0
- 0.0
- 0.0
---
header:
  stamp:
    sec: 1754038650
    nanosec: 595569733
  frame_id: imu_link
magnetic_field:
  x: -4.970000000000001
  y: 13.944
  z: -76.45400000000001
magnetic_field_covariance:
- 0.0
- 0.0
- 0.0
- 0.0
- 0.0
- 0.0
- 0.0
- 0.0
- 0.0
---
header:
  stamp:
    sec: 1754038650
    nanosec: 615406723
  frame_id: imu_link
magnetic_field:
  x: -4.606000000000001
  y: 13.818000000000003
  z: -76.81800000000001
magnetic_field_covariance:
- 0.0
- 0.0
- 0.0
- 0.0
- 0.0
- 0.0
- 0.0
- 0.0
- 0.0
---
header:
  stamp:
    sec: 1754038650
    nanosec: 636474204
  frame_id: imu_link
magnetic_field:
  x: -4.284000000000001
  y: 14.056000000000001
  z: -76.132
magnetic_field_covariance:
- 0.0
- 0.0
- 0.0
- 0.0
- 0.0
- 0.0
- 0.0
- 0.0
- 0.0
---
header:
  stamp:
    sec: 1754038650
    nanosec: 655411880
  frame_id: imu_link
magnetic_field:
  x: -4.424
  y: 14.070000000000002
  z: -76.37
magnetic_field_covariance:
- 0.0
- 0.0
- 0.0
- 0.0
- 0.0
- 0.0
- 0.0
- 0.0
- 0.0
---
header:
  stamp:
    sec: 1754038650
    nanosec: 676158330
  frame_id: imu_link
magnetic_field:
  x: -4.62
  y: 14.042000000000002
  z: -76.272
magnetic_field_covariance:
- 0.0
- 0.0
- 0.0
- 0.0
- 0.0
- 0.0
- 0.0
- 0.0
- 0.0
---
header:
  stamp:
    sec: 1754038650
    nanosec: 695825749
  frame_id: imu_link
magnetic_field:
  x: -3.472
  y: 14.000000000000002
  z: -76.56600000000002
magnetic_field_covariance:
- 0.0
- 0.0
- 0.0
- 0.0
- 0.0
- 0.0
- 0.0
- 0.0
- 0.0
---
header:
  stamp:
    sec: 1754038650
    nanosec: 715412431
  frame_id: imu_link
magnetic_field:
  x: -3.9900000000000007
  y: 14.238000000000001
  z: -75.852
magnetic_field_covariance:
- 0.0
- 0.0
- 0.0
- 0.0
- 0.0
- 0.0
- 0.0
- 0.0
- 0.0
---
header:
  stamp:
    sec: 1754038650
    nanosec: 735530548
  frame_id: imu_link
magnetic_field:
  x: -4.032
  y: 13.496000000000002
  z: -76.81800000000001
magnetic_field_covariance:
- 0.0
- 0.0
- 0.0
- 0.0
- 0.0
- 0.0
- 0.0
- 0.0
- 0.0
---
header:
  stamp:
    sec: 1754038650
    nanosec: 755552918
  frame_id: imu_link
magnetic_field:
  x: -3.6120000000000005
  y: 13.846000000000004
  z: -76.11800000000001
magnetic_field_covariance:
- 0.0
- 0.0
- 0.0
- 0.0
- 0.0
- 0.0
- 0.0
- 0.0
- 0.0
---
header:
  stamp:
    sec: 1754038650
    nanosec: 776218087
  frame_id: imu_link
magnetic_field:
  x: -3.556
  y: 13.762000000000002
  z: -76.986
magnetic_field_covariance:
- 0.0
- 0.0
- 0.0
- 0.0
- 0.0
- 0.0
- 0.0
- 0.0
- 0.0
---
header:
  stamp:
    sec: 1754038650
    nanosec: 796152295
  frame_id: imu_link
magnetic_field:
  x: -3.4580000000000006
  y: 13.524000000000003
  z: -76.146
magnetic_field_covariance:
- 0.0
- 0.0
- 0.0
- 0.0
- 0.0
- 0.0
- 0.0
- 0.0
- 0.0
---
header:
  stamp:
    sec: 1754038650
    nanosec: 816060072
  frame_id: imu_link
magnetic_field:
  x: -3.8360000000000003
  y: 13.804000000000002
  z: -76.034
magnetic_field_covariance:
- 0.0
- 0.0
- 0.0
- 0.0
- 0.0
- 0.0
- 0.0
- 0.0
- 0.0
---
header:
  stamp:
    sec: 1754038650
    nanosec: 836251022
  frame_id: imu_link
magnetic_field:
  x: -3.486
  y: 13.384000000000002
  z: -76.07600000000001
magnetic_field_covariance:
- 0.0
- 0.0
- 0.0
- 0.0
- 0.0
- 0.0
- 0.0
- 0.0
- 0.0
---
header:
  stamp:
    sec: 1754038650
    nanosec: 855501441
  frame_id: imu_link
magnetic_field:
  x: -3.7520000000000007
  y: 13.692000000000002
  z: -76.006
magnetic_field_covariance:
- 0.0
- 0.0
- 0.0
- 0.0
- 0.0
- 0.0
- 0.0
- 0.0
- 0.0
---
header:
  stamp:
    sec: 1754038650
    nanosec: 875557060
  frame_id: imu_link
magnetic_field:
  x: -3.234
  y: 13.986
  z: -76.552
magnetic_field_covariance:
- 0.0
- 0.0
- 0.0
- 0.0
- 0.0
- 0.0
- 0.0
- 0.0
- 0.0
---
header:
  stamp:
    sec: 1754038650
    nanosec: 895583943
  frame_id: imu_link
magnetic_field:
  x: -3.1360000000000006
  y: 13.804000000000002
  z: -76.81800000000001
magnetic_field_covariance:
- 0.0
- 0.0
- 0.0
- 0.0
- 0.0
- 0.0
- 0.0
- 0.0
- 0.0
---
header:
  stamp:
    sec: 1754038650
    nanosec: 915532712
  frame_id: imu_link
magnetic_field:
  x: -3.4580000000000006
  y: 13.804000000000002
  z: -76.146
magnetic_field_covariance:
- 0.0
- 0.0
- 0.0
- 0.0
- 0.0
- 0.0
- 0.0
- 0.0
- 0.0
---
header:
  stamp:
    sec: 1754038650
    nanosec: 935553803
  frame_id: imu_link
magnetic_field:
  x: -3.15
  y: 13.720000000000002
  z: -75.71200000000002
magnetic_field_covariance:
- 0.0
- 0.0
- 0.0
- 0.0
- 0.0
- 0.0
- 0.0
- 0.0
- 0.0
---
header:
  stamp:
    sec: 1754038650
    nanosec: 955561965
  frame_id: imu_link
magnetic_field:
  x: -3.234
  y: 13.552
  z: -74.648
magnetic_field_covariance:
- 0.0
- 0.0
- 0.0
- 0.0
- 0.0
- 0.0
- 0.0
- 0.0
- 0.0
---
header:
  stamp:
    sec: 1754038650
    nanosec: 975560527
  frame_id: imu_link
magnetic_field:
  x: -3.5140000000000002
  y: 13.482000000000003
  z: -75.936
magnetic_field_covariance:
- 0.0
- 0.0
- 0.0
- 0.0
- 0.0
- 0.0
- 0.0
- 0.0
- 0.0
---
header:
  stamp:
    sec: 1754038650
    nanosec: 995550642
  frame_id: imu_link
magnetic_field:
  x: -3.8080000000000003
  y: 13.664000000000001
  z: -75.92200000000001
magnetic_field_covariance:
- 0.0
- 0.0
- 0.0
- 0.0
- 0.0
- 0.0
- 0.0
- 0.0
- 0.0
---
header:
  stamp:
    sec: 1754038651
    nanosec: 15671318
  frame_id: imu_link
magnetic_field:
  x: -3.64
  y: 13.468000000000002
  z: -75.53
magnetic_field_covariance:
- 0.0
- 0.0
- 0.0
- 0.0
- 0.0
- 0.0
- 0.0
- 0.0
- 0.0
---
header:
  stamp:
    sec: 1754038651
    nanosec: 35548246
  frame_id: imu_link
magnetic_field:
  x: -3.5700000000000003
  y: 13.762000000000002
  z: -75.824
magnetic_field_covariance:
- 0.0
- 0.0
- 0.0
- 0.0
- 0.0
- 0.0
- 0.0
- 0.0
- 0.0
---
header:
  stamp:
    sec: 1754038651
    nanosec: 55809693
  frame_id: imu_link
magnetic_field:
  x: -3.9340000000000006
  y: 13.538000000000002
  z: -76.21600000000001
magnetic_field_covariance:
- 0.0
- 0.0
- 0.0
- 0.0
- 0.0
- 0.0
- 0.0
- 0.0
- 0.0
---
header:
  stamp:
    sec: 1754038651
    nanosec: 75598491
  frame_id: imu_link
magnetic_field:
  x: -3.878
  y: 13.734000000000002
  z: -75.96400000000001
magnetic_field_covariance:
- 0.0
- 0.0
- 0.0
- 0.0
- 0.0
- 0.0
- 0.0
- 0.0
- 0.0
---
header:
  stamp:
    sec: 1754038651
    nanosec: 95879235
  frame_id: imu_link
magnetic_field:
  x: -4.62
  y: 13.664000000000001
  z: -75.418
magnetic_field_covariance:
- 0.0
- 0.0
- 0.0
- 0.0
- 0.0
- 0.0
- 0.0
- 0.0
- 0.0
---
header:
  stamp:
    sec: 1754038651
    nanosec: 115452285
  frame_id: imu_link
magnetic_field:
  x: -5.0680000000000005
  y: 13.846000000000004
  z: -75.96400000000001
magnetic_field_covariance:
- 0.0
- 0.0
- 0.0
- 0.0
- 0.0
- 0.0
- 0.0
- 0.0
- 0.0
---
header:
  stamp:
    sec: 1754038651
    nanosec: 135532032
  frame_id: imu_link
magnetic_field:
  x: -5.46
  y: 13.3
  z: -75.628
magnetic_field_covariance:
- 0.0
- 0.0
- 0.0
- 0.0
- 0.0
- 0.0
- 0.0
- 0.0
- 0.0
---
header:
  stamp:
    sec: 1754038651
    nanosec: 155600388
  frame_id: imu_link
magnetic_field:
  x: -5.978000000000001
  y: 13.328000000000001
  z: -76.07600000000001
magnetic_field_covariance:
- 0.0
- 0.0
- 0.0
- 0.0
- 0.0
- 0.0
- 0.0
- 0.0
- 0.0
---
header:
  stamp:
    sec: 1754038651
    nanosec: 175638055
  frame_id: imu_link
magnetic_field:
  x: -6.5520000000000005
  y: 13.160000000000002
  z: -76.38400000000001
magnetic_field_covariance:
- 0.0
- 0.0
- 0.0
- 0.0
- 0.0
- 0.0
- 0.0
- 0.0
- 0.0
---
header:
  stamp:
    sec: 1754038651
    nanosec: 195674858
  frame_id: imu_link
magnetic_field:
  x: -7.154000000000001
  y: 13.188000000000002
  z: -76.65
magnetic_field_covariance:
- 0.0
- 0.0
- 0.0
- 0.0
- 0.0
- 0.0
- 0.0
- 0.0
- 0.0
---
header:
  stamp:
    sec: 1754038651
    nanosec: 215653004
  frame_id: imu_link
magnetic_field:
  x: -7.798000000000001
  y: 13.384000000000002
  z: -76.748
magnetic_field_covariance:
- 0.0
- 0.0
- 0.0
- 0.0
- 0.0
- 0.0
- 0.0
- 0.0
- 0.0
---
header:
  stamp:
    sec: 1754038651
    nanosec: 235674510
  frame_id: imu_link
magnetic_field:
  x: -9.198
  y: 13.23
  z: -76.902
magnetic_field_covariance:
- 0.0
- 0.0
- 0.0
- 0.0
- 0.0
- 0.0
- 0.0
- 0.0
- 0.0
---
header:
  stamp:
    sec: 1754038651
    nanosec: 255646128
  frame_id: imu_link
magnetic_field:
  x: -9.870000000000001
  y: 13.370000000000001
  z: -75.796
magnetic_field_covariance:
- 0.0
- 0.0
- 0.0
- 0.0
- 0.0
- 0.0
- 0.0
- 0.0
- 0.0
---
header:
  stamp:
    sec: 1754038651
    nanosec: 275620529
  frame_id: imu_link
magnetic_field:
  x: -10.486
  y: 13.426000000000002
  z: -76.18800000000002
magnetic_field_covariance:
- 0.0
- 0.0
- 0.0
- 0.0
- 0.0
- 0.0
- 0.0
- 0.0
- 0.0
---
header:
  stamp:
    sec: 1754038651
    nanosec: 295602259
  frame_id: imu_link
magnetic_field:
  x: -11.452000000000002
  y: 13.132000000000001
  z: -76.34200000000001
magnetic_field_covariance:
- 0.0
- 0.0
- 0.0
- 0.0
- 0.0
- 0.0
- 0.0
- 0.0
- 0.0
---
header:
  stamp:
    sec: 1754038651
    nanosec: 315737496
  frame_id: imu_link
magnetic_field:
  x: -12.432000000000002
  y: 13.552
  z: -76.45400000000001
magnetic_field_covariance:
- 0.0
- 0.0
- 0.0
- 0.0
- 0.0
- 0.0
- 0.0
- 0.0
- 0.0
---
header:
  stamp:
    sec: 1754038651
    nanosec: 336085410
  frame_id: imu_link
magnetic_field:
  x: -13.510000000000003
  y: 13.608
  z: -75.992
magnetic_field_covariance:
- 0.0
- 0.0
- 0.0
- 0.0
- 0.0
- 0.0
- 0.0
- 0.0
- 0.0
---
header:
  stamp:
    sec: 1754038651
    nanosec: 355531000
  frame_id: imu_link
magnetic_field:
  x: -14.91
  y: 13.258000000000001
  z: -75.86600000000001
magnetic_field_covariance:
- 0.0
- 0.0
- 0.0
- 0.0
- 0.0
- 0.0
- 0.0
- 0.0
- 0.0
---
header:
  stamp:
    sec: 1754038651
    nanosec: 375548763
  frame_id: imu_link
magnetic_field:
  x: -15.764000000000003
  y: 13.426000000000002
  z: -75.39000000000001
magnetic_field_covariance:
- 0.0
- 0.0
- 0.0
- 0.0
- 0.0
- 0.0
- 0.0
- 0.0
- 0.0
---
header:
  stamp:
    sec: 1754038651
    nanosec: 395915621
  frame_id: imu_link
magnetic_field:
  x: -16.786
  y: 13.034
  z: -75.81000000000002
magnetic_field_covariance:
- 0.0
- 0.0
- 0.0
- 0.0
- 0.0
- 0.0
- 0.0
- 0.0
- 0.0
---
header:
  stamp:
    sec: 1754038651
    nanosec: 415214488
  frame_id: imu_link
magnetic_field:
  x: -17.822000000000003
  y: 13.048000000000002
  z: -75.22200000000001
magnetic_field_covariance:
- 0.0
- 0.0
- 0.0
- 0.0
- 0.0
- 0.0
- 0.0
- 0.0
- 0.0
---
header:
  stamp:
    sec: 1754038651
    nanosec: 435596034
  frame_id: imu_link
magnetic_field:
  x: -18.746000000000002
  y: 13.524000000000003
  z: -75.376
magnetic_field_covariance:
- 0.0
- 0.0
- 0.0
- 0.0
- 0.0
- 0.0
- 0.0
- 0.0
- 0.0
---
header:
  stamp:
    sec: 1754038651
    nanosec: 455546212
  frame_id: imu_link
magnetic_field:
  x: -19.432000000000002
  y: 13.020000000000001
  z: -74.69000000000001
magnetic_field_covariance:
- 0.0
- 0.0
- 0.0
- 0.0
- 0.0
- 0.0
- 0.0
- 0.0
- 0.0
---
header:
  stamp:
    sec: 1754038651
    nanosec: 475534373
  frame_id: imu_link
magnetic_field:
  x: -20.524000000000004
  y: 13.118000000000002
  z: -74.34
magnetic_field_covariance:
- 0.0
- 0.0
- 0.0
- 0.0
- 0.0
- 0.0
- 0.0
- 0.0
- 0.0
---
header:
  stamp:
    sec: 1754038651
    nanosec: 495508103
  frame_id: imu_link
magnetic_field:
  x: -21.952
  y: 13.790000000000003
  z: -74.802
magnetic_field_covariance:
- 0.0
- 0.0
- 0.0
- 0.0
- 0.0
- 0.0
- 0.0
- 0.0
- 0.0
---
header:
  stamp:
    sec: 1754038651
    nanosec: 515507017
  frame_id: imu_link
magnetic_field:
  x: -22.624000000000002
  y: 13.356000000000002
  z: -75.11000000000001
magnetic_field_covariance:
- 0.0
- 0.0
- 0.0
- 0.0
- 0.0
- 0.0
- 0.0
- 0.0
- 0.0
---
header:
  stamp:
    sec: 1754038651
    nanosec: 535544268
  frame_id: imu_link
magnetic_field:
  x: -23.352000000000004
  y: 13.608
  z: -74.914
magnetic_field_covariance:
- 0.0
- 0.0
- 0.0
- 0.0
- 0.0
- 0.0
- 0.0
- 0.0
- 0.0
---
header:
  stamp:
    sec: 1754038651
    nanosec: 555385035
  frame_id: imu_link
magnetic_field:
  x: -23.968000000000004
  y: 13.552
  z: -74.424
magnetic_field_covariance:
- 0.0
- 0.0
- 0.0
- 0.0
- 0.0
- 0.0
- 0.0
- 0.0
- 0.0
---
header:
  stamp:
    sec: 1754038651
    nanosec: 576240767
  frame_id: imu_link
magnetic_field:
  x: -25.256
  y: 14.252
  z: -74.60600000000001
magnetic_field_covariance:
- 0.0
- 0.0
- 0.0
- 0.0
- 0.0
- 0.0
- 0.0
- 0.0
- 0.0
---
header:
  stamp:
    sec: 1754038651
    nanosec: 595695158
  frame_id: imu_link
magnetic_field:
  x: -26.320000000000004
  y: 14.56
  z: -74.018
magnetic_field_covariance:
- 0.0
- 0.0
- 0.0
- 0.0
- 0.0
- 0.0
- 0.0
- 0.0
- 0.0
---
header:
  stamp:
    sec: 1754038651
    nanosec: 615353777
  frame_id: imu_link
magnetic_field:
  x: -27.048000000000005
  y: 14.070000000000002
  z: -73.27600000000001
magnetic_field_covariance:
- 0.0
- 0.0
- 0.0
- 0.0
- 0.0
- 0.0
- 0.0
- 0.0
- 0.0
---
header:
  stamp:
    sec: 1754038651
    nanosec: 635663098
  frame_id: imu_link
magnetic_field:
  x: -28.042
  y: 14.868
  z: -73.71000000000001
magnetic_field_covariance:
- 0.0
- 0.0
- 0.0
- 0.0
- 0.0
- 0.0
- 0.0
- 0.0
- 0.0
---
header:
  stamp:
    sec: 1754038651
    nanosec: 655532249
  frame_id: imu_link
magnetic_field:
  x: -28.280000000000005
  y: 15.246
  z: -73.668
magnetic_field_covariance:
- 0.0
- 0.0
- 0.0
- 0.0
- 0.0
- 0.0
- 0.0
- 0.0
- 0.0
---
header:
  stamp:
    sec: 1754038651
    nanosec: 675559452
  frame_id: imu_link
magnetic_field:
  x: -29.512000000000004
  y: 15.680000000000001
  z: -72.884
magnetic_field_covariance:
- 0.0
- 0.0
- 0.0
- 0.0
- 0.0
- 0.0
- 0.0
- 0.0
- 0.0
---
header:
  stamp:
    sec: 1754038651
    nanosec: 695364058
  frame_id: imu_link
magnetic_field:
  x: -30.156000000000006
  y: 15.092000000000002
  z: -73.052
magnetic_field_covariance:
- 0.0
- 0.0
- 0.0
- 0.0
- 0.0
- 0.0
- 0.0
- 0.0
- 0.0
---
header:
  stamp:
    sec: 1754038651
    nanosec: 715521695
  frame_id: imu_link
magnetic_field:
  x: -30.926000000000002
  y: 15.120000000000003
  z: -72.352
magnetic_field_covariance:
- 0.0
- 0.0
- 0.0
- 0.0
- 0.0
- 0.0
- 0.0
- 0.0
- 0.0
---
header:
  stamp:
    sec: 1754038651
    nanosec: 735519265
  frame_id: imu_link
magnetic_field:
  x: -31.402
  y: 15.764000000000003
  z: -72.57600000000001
magnetic_field_covariance:
- 0.0
- 0.0
- 0.0
- 0.0
- 0.0
- 0.0
- 0.0
- 0.0
- 0.0
---
header:
  stamp:
    sec: 1754038651
    nanosec: 755531780
  frame_id: imu_link
magnetic_field:
  x: -32.102000000000004
  y: 15.722000000000003
  z: -72.57600000000001
magnetic_field_covariance:
- 0.0
- 0.0
- 0.0
- 0.0
- 0.0
- 0.0
- 0.0
- 0.0
- 0.0
---
header:
  stamp:
    sec: 1754038651
    nanosec: 775530246
  frame_id: imu_link
magnetic_field:
  x: -32.648
  y: 15.316000000000003
  z: -71.66600000000001
magnetic_field_covariance:
- 0.0
- 0.0
- 0.0
- 0.0
- 0.0
- 0.0
- 0.0
- 0.0
- 0.0
---
header:
  stamp:
    sec: 1754038651
    nanosec: 795591785
  frame_id: imu_link
magnetic_field:
  x: -33.040000000000006
  y: 16.1
  z: -72.17000000000002
magnetic_field_covariance:
- 0.0
- 0.0
- 0.0
- 0.0
- 0.0
- 0.0
- 0.0
- 0.0
- 0.0
---
header:
  stamp:
    sec: 1754038651
    nanosec: 815557035
  frame_id: imu_link
magnetic_field:
  x: -33.992000000000004
  y: 16.380000000000003
  z: -71.162
magnetic_field_covariance:
- 0.0
- 0.0
- 0.0
- 0.0
- 0.0
- 0.0
- 0.0
- 0.0
- 0.0
---
header:
  stamp:
    sec: 1754038651
    nanosec: 835640207
  frame_id: imu_link
magnetic_field:
  x: -34.496
  y: 15.778
  z: -71.05
magnetic_field_covariance:
- 0.0
- 0.0
- 0.0
- 0.0
- 0.0
- 0.0
- 0.0
- 0.0
- 0.0
---
header:
  stamp:
    sec: 1754038651
    nanosec: 855699922
  frame_id: imu_link
magnetic_field:
  x: -34.888000000000005
  y: 16.394000000000002
  z: -70.63000000000001
magnetic_field_covariance:
- 0.0
- 0.0
- 0.0
- 0.0
- 0.0
- 0.0
- 0.0
- 0.0
- 0.0
---
header:
  stamp:
    sec: 1754038651
    nanosec: 875248843
  frame_id: imu_link
magnetic_field:
  x: -35.49
  y: 15.792
  z: -69.87400000000001
magnetic_field_covariance:
- 0.0
- 0.0
- 0.0
- 0.0
- 0.0
- 0.0
- 0.0
- 0.0
- 0.0
---
header:
  stamp:
    sec: 1754038651
    nanosec: 895541875
  frame_id: imu_link
magnetic_field:
  x: -36.120000000000005
  y: 16.254
  z: -69.67800000000001
magnetic_field_covariance:
- 0.0
- 0.0
- 0.0
- 0.0
- 0.0
- 0.0
- 0.0
- 0.0
- 0.0
---
header:
  stamp:
    sec: 1754038651
    nanosec: 915545686
  frame_id: imu_link
magnetic_field:
  x: -36.82
  y: 16.296000000000003
  z: -69.87400000000001
magnetic_field_covariance:
- 0.0
- 0.0
- 0.0
- 0.0
- 0.0
- 0.0
- 0.0
- 0.0
- 0.0
---
header:
  stamp:
    sec: 1754038651
    nanosec: 935541304
  frame_id: imu_link
magnetic_field:
  x: -37.212
  y: 16.1
  z: -68.642
magnetic_field_covariance:
- 0.0
- 0.0
- 0.0
- 0.0
- 0.0
- 0.0
- 0.0
- 0.0
- 0.0
---
header:
  stamp:
    sec: 1754038651
    nanosec: 955522873
  frame_id: imu_link
magnetic_field:
  x: -37.85600000000001
  y: 16.310000000000002
  z: -68.46000000000001
magnetic_field_covariance:
- 0.0
- 0.0
- 0.0
- 0.0
- 0.0
- 0.0
- 0.0
- 0.0
- 0.0
---
header:
  stamp:
    sec: 1754038651
    nanosec: 975539164
  frame_id: imu_link
magnetic_field:
  x: -37.912
  y: 16.366000000000003
  z: -69.23
magnetic_field_covariance:
- 0.0
- 0.0
- 0.0
- 0.0
- 0.0
- 0.0
- 0.0
- 0.0
- 0.0
---
header:
  stamp:
    sec: 1754038651
    nanosec: 995610816
  frame_id: imu_link
magnetic_field:
  x: -38.458000000000006
  y: 15.876000000000001
  z: -68.852
magnetic_field_covariance:
- 0.0
- 0.0
- 0.0
- 0.0
- 0.0
- 0.0
- 0.0
- 0.0
- 0.0
---
header:
  stamp:
    sec: 1754038652
    nanosec: 15537344
  frame_id: imu_link
magnetic_field:
  x: -39.08800000000001
  y: 15.974000000000002
  z: -67.802
magnetic_field_covariance:
- 0.0
- 0.0
- 0.0
- 0.0
- 0.0
- 0.0
- 0.0
- 0.0
- 0.0
---
header:
  stamp:
    sec: 1754038652
    nanosec: 35658757
  frame_id: imu_link
magnetic_field:
  x: -39.228
  y: 15.932000000000002
  z: -67.676
magnetic_field_covariance:
- 0.0
- 0.0
- 0.0
- 0.0
- 0.0
- 0.0
- 0.0
- 0.0
- 0.0
---
header:
  stamp:
    sec: 1754038652
    nanosec: 55641959
  frame_id: imu_link
magnetic_field:
  x: -40.194
  y: 16.086000000000002
  z: -67.298
magnetic_field_covariance:
- 0.0
- 0.0
- 0.0
- 0.0
- 0.0
- 0.0
- 0.0
- 0.0
- 0.0
---
header:
  stamp:
    sec: 1754038652
    nanosec: 75522438
  frame_id: imu_link
magnetic_field:
  x: -40.69800000000001
  y: 15.372000000000002
  z: -67.45200000000001
magnetic_field_covariance:
- 0.0
- 0.0
- 0.0
- 0.0
- 0.0
- 0.0
- 0.0
- 0.0
- 0.0
---
header:
  stamp:
    sec: 1754038652
    nanosec: 95526536
  frame_id: imu_link
magnetic_field:
  x: -40.516000000000005
  y: 15.652000000000003
  z: -66.19200000000001
magnetic_field_covariance:
- 0.0
- 0.0
- 0.0
- 0.0
- 0.0
- 0.0
- 0.0
- 0.0
- 0.0
---
header:
  stamp:
    sec: 1754038652
    nanosec: 115902738
  frame_id: imu_link
magnetic_field:
  x: -41.496
  y: 15.862000000000002
  z: -66.108
magnetic_field_covariance:
- 0.0
- 0.0
- 0.0
- 0.0
- 0.0
- 0.0
- 0.0
- 0.0
- 0.0
---
header:
  stamp:
    sec: 1754038652
    nanosec: 135663535
  frame_id: imu_link
magnetic_field:
  x: -41.55200000000001
  y: 15.442000000000004
  z: -65.84200000000001
magnetic_field_covariance:
- 0.0
- 0.0
- 0.0
- 0.0
- 0.0
- 0.0
- 0.0
- 0.0
- 0.0
---
header:
  stamp:
    sec: 1754038652
    nanosec: 155342219
  frame_id: imu_link
magnetic_field:
  x: -41.944
  y: 16.114
  z: -65.744
magnetic_field_covariance:
- 0.0
- 0.0
- 0.0
- 0.0
- 0.0
- 0.0
- 0.0
- 0.0
- 0.0
---
header:
  stamp:
    sec: 1754038652
    nanosec: 175582194
  frame_id: imu_link
magnetic_field:
  x: -42.04200000000001
  y: 15.610000000000001
  z: -66.066
magnetic_field_covariance:
- 0.0
- 0.0
- 0.0
- 0.0
- 0.0
- 0.0
- 0.0
- 0.0
- 0.0
---
header:
  stamp:
    sec: 1754038652
    nanosec: 195742231
  frame_id: imu_link
magnetic_field:
  x: -42.21
  y: 15.806000000000001
  z: -65.14200000000001
magnetic_field_covariance:
- 0.0
- 0.0
- 0.0
- 0.0
- 0.0
- 0.0
- 0.0
- 0.0
- 0.0
---
header:
  stamp:
    sec: 1754038652
    nanosec: 215606871
  frame_id: imu_link
magnetic_field:
  x: -42.37800000000001
  y: 15.694000000000003
  z: -64.918
magnetic_field_covariance:
- 0.0
- 0.0
- 0.0
- 0.0
- 0.0
- 0.0
- 0.0
- 0.0
- 0.0
---
header:
  stamp:
    sec: 1754038652
    nanosec: 235602425
  frame_id: imu_link
magnetic_field:
  x: -42.644000000000005
  y: 16.268
  z: -65.548
magnetic_field_covariance:
- 0.0
- 0.0
- 0.0
- 0.0
- 0.0
- 0.0
- 0.0
- 0.0
- 0.0
---
header:
  stamp:
    sec: 1754038652
    nanosec: 255602587
  frame_id: imu_link
magnetic_field:
  x: -42.434000000000005
  y: 15.974000000000002
  z: -64.47
magnetic_field_covariance:
- 0.0
- 0.0
- 0.0
- 0.0
- 0.0
- 0.0
- 0.0
- 0.0
- 0.0
---
header:
  stamp:
    sec: 1754038652
    nanosec: 275337495
  frame_id: imu_link
magnetic_field:
  x: -43.022000000000006
  y: 15.806000000000001
  z: -64.48400000000001
magnetic_field_covariance:
- 0.0
- 0.0
- 0.0
- 0.0
- 0.0
- 0.0
- 0.0
- 0.0
- 0.0
---
header:
  stamp:
    sec: 1754038652
    nanosec: 295528925
  frame_id: imu_link
magnetic_field:
  x: -42.89600000000001
  y: 15.862000000000002
  z: -63.63000000000001
magnetic_field_covariance:
- 0.0
- 0.0
- 0.0
- 0.0
- 0.0
- 0.0
- 0.0
- 0.0
- 0.0
---
header:
  stamp:
    sec: 1754038652
    nanosec: 315655138
  frame_id: imu_link
magnetic_field:
  x: -43.316
  y: 15.988000000000003
  z: -63.64400000000001
magnetic_field_covariance:
- 0.0
- 0.0
- 0.0
- 0.0
- 0.0
- 0.0
- 0.0
- 0.0
- 0.0
---
header:
  stamp:
    sec: 1754038652
    nanosec: 335706341
  frame_id: imu_link
magnetic_field:
  x: -42.77
  y: 16.072000000000003
  z: -62.87400000000001
magnetic_field_covariance:
- 0.0
- 0.0
- 0.0
- 0.0
- 0.0
- 0.0
- 0.0
- 0.0
- 0.0
---
header:
  stamp:
    sec: 1754038652
    nanosec: 355807561
  frame_id: imu_link
magnetic_field:
  x: -43.428000000000004
  y: 15.260000000000002
  z: -63.014
magnetic_field_covariance:
- 0.0
- 0.0
- 0.0
- 0.0
- 0.0
- 0.0
- 0.0
- 0.0
- 0.0
---
header:
  stamp:
    sec: 1754038652
    nanosec: 375726346
  frame_id: imu_link
magnetic_field:
  x: -43.61000000000001
  y: 15.932000000000002
  z: -62.79
magnetic_field_covariance:
- 0.0
- 0.0
- 0.0
- 0.0
- 0.0
- 0.0
- 0.0
- 0.0
- 0.0
---
header:
  stamp:
    sec: 1754038652
    nanosec: 395639178
  frame_id: imu_link
magnetic_field:
  x: -44.10000000000001
  y: 15.512
  z: -63.14000000000001
magnetic_field_covariance:
- 0.0
- 0.0
- 0.0
- 0.0
- 0.0
- 0.0
- 0.0
- 0.0
- 0.0
---
header:
  stamp:
    sec: 1754038652
    nanosec: 415652332
